,City,Cloudiness,Country,Date,Humidity,Lat,Lng,Max Temp,Wind Speed
0,naujoji akmene,90,LT,1541967600,93,56.32,22.9,39.2,17.22
1,kapaa,40,US,1541966160,56,22.08,-159.32,80.06,23.04
2,hilo,75,US,1541966160,68,19.71,-155.08,77.0,13.87
3,pevek,0,RU,1541969693,100,69.7,170.27,-4.94,10.02
4,la concordia,40,NI,1541966400,61,13.2,-86.17,77.0,13.87
5,punta arenas,0,CL,1541966400,43,-53.16,-70.91,55.4,18.34
6,vila velha,20,BR,1541966400,69,-3.71,-38.6,82.4,13.87
7,souillac,92,FR,1541968200,93,45.6,-0.6,55.4,1.12
8,hithadhoo,88,MV,1541969695,99,-0.6,73.08,83.4,17.4
9,muzhi,68,RU,1541969695,77,65.4,64.7,23.33,21.54
10,alofi,40,NU,1541966400,83,-19.06,-169.92,80.6,10.29
11,sambava,92,MG,1541969696,100,-14.27,50.17,77.51,15.77
12,sept-iles,90,CA,1541967480,73,50.2,-66.38,26.6,19.46
13,hermanus,0,ZA,1541969696,72,-34.42,19.24,62.7,4.36
14,chuy,68,UY,1541969696,91,-33.69,-53.46,70.58,14.43
15,puerto madryn,92,AR,1541969696,85,-42.77,-65.04,56.99,12.3
16,manakara,92,MG,1541969698,100,-22.14,48.01,70.04,10.74
17,portland,20,US,1541966160,56,45.52,-122.67,57.92,4.7
18,cape town,0,ZA,1541966400,64,-33.93,18.42,69.8,11.41
19,port alfred,76,ZA,1541969698,88,-33.59,26.89,69.23,18.68
20,puerto ayora,75,EC,1541966400,69,-0.74,-90.35,78.8,5.82
21,mataura,92,NZ,1541969698,100,-46.19,168.86,52.13,6.26
22,bonavista,0,CA,1541969698,93,48.65,-53.11,39.35,32.28
23,lavrentiya,36,RU,1541969699,100,65.58,-170.99,32.06,32.39
24,cherskiy,0,RU,1541969699,52,68.75,161.3,-9.26,3.69
25,seoni,0,IN,1541969699,79,22.09,79.55,53.43,3.31
26,komsomolskiy,92,RU,1541969699,94,67.55,63.78,32.06,24.9
27,narsaq,0,GL,1541965800,67,60.91,-46.05,23.0,6.49
28,tiznit,64,MA,1541969699,98,29.7,-9.73,60.95,1.74
29,mackenzie,90,CA,1541966400,92,55.34,-123.09,28.4,5.82
30,bluff,0,AU,1541969700,66,-23.58,149.07,69.95,10.25
31,newport,36,GB,1541967600,87,51.59,-3.0,51.8,10.29
32,busselton,80,AU,1541969700,100,-33.64,115.35,60.5,8.01
33,auki,0,NG,1541969700,33,12.18,6.51,67.38,4.32
34,nikolskoye,90,RU,1541966400,83,59.7,30.79,37.4,8.95
35,zhezkazgan,0,KZ,1541969701,72,47.8,67.71,-2.69,8.57
36,castro,12,CL,1541969701,91,-42.48,-73.76,60.18,3.2
37,otuzco,90,PE,1541966400,82,-7.9,-78.57,68.0,9.17
38,dondo,0,MZ,1541966400,69,-19.62,34.74,73.4,14.99
39,saskylakh,20,RU,1541969702,62,71.97,114.09,-13.58,17.56
40,tuktoyaktuk,90,CA,1541966400,72,69.44,-133.03,10.4,5.82
41,saint-philippe,20,CA,1541967300,78,45.36,-73.48,33.8,18.34
42,zhob,12,PK,1541969703,94,31.34,69.45,43.35,2.19
43,yellowknife,90,CA,1541966400,78,62.45,-114.38,14.0,9.17
44,coihaique,40,CL,1541966400,45,-45.58,-72.07,68.0,8.05
45,buala,88,SB,1541969703,100,-8.15,159.59,79.13,10.25
46,kodiak,1,US,1541965980,51,39.95,-94.76,46.04,11.41
47,kommunisticheskiy,0,RU,1541969703,75,61.68,64.48,15.68,11.63
48,ponta do sol,48,BR,1541969704,87,-20.63,-46.0,73.01,3.58
49,ushuaia,75,AR,1541966400,57,-54.81,-68.31,51.8,10.29
50,carnarvon,0,ZA,1541969704,19,-30.97,22.13,64.55,6.6
51,aykhal,0,RU,1541969704,63,65.95,111.51,-14.66,7.05
52,chabahar,0,IR,1541969704,91,25.29,60.65,80.39,14.43
53,pontiac,40,US,1541968500,39,42.64,-83.29,39.92,10.29
54,east london,88,ZA,1541969705,96,-33.02,27.91,70.08,23.67
55,rawson,92,AR,1541969705,66,-43.3,-65.11,62.84,14.05
56,bonthe,56,SL,1541969705,98,7.53,-12.5,77.96,2.46
57,casino,0,AU,1541969708,80,-28.86,153.05,61.85,3.87
58,port-gentil,40,GA,1541966400,94,-0.72,8.78,77.0,4.7
59,vaini,8,IN,1541969709,68,15.34,74.49,67.92,2.35
60,yuzhno-kurilsk,20,RU,1541969709,100,44.03,145.86,47.58,18.01
61,karlskrona,90,SE,1541967600,100,56.16,15.59,46.4,8.05
62,airai,0,TL,1541969709,86,-8.93,125.41,64.46,1.45
63,oktyabrskiy,0,RU,1541966400,67,55.61,37.97,21.2,11.18
64,rikitea,76,PF,1541969709,100,-23.12,-134.97,70.62,4.81
65,kruisfontein,44,ZA,1541969710,88,-34.0,24.73,65.58,16.62
66,qaqortoq,0,GL,1541965800,67,60.72,-46.03,23.0,7.38
67,amalapuram,0,IN,1541969710,79,16.58,82.0,77.24,11.74
68,hobart,0,AU,1541968200,76,-42.88,147.33,53.6,9.17
69,jaca,44,ES,1541968200,76,42.57,-0.55,55.4,10.29
70,krasnoarmeyskoye,92,UA,1541969710,100,45.99,34.03,46.91,16.55
71,ribeira grande,40,PT,1541968200,59,38.52,-28.7,60.8,10.29
72,micheweni,0,TZ,1541969711,99,-4.97,39.83,80.3,10.8
73,quballat,20,TN,1541966400,93,36.54,9.66,59.0,3.36
74,albany,40,US,1541969160,47,42.65,-73.75,37.94,11.41
75,chokurdakh,0,RU,1541969711,49,70.62,147.9,-16.5,4.99
76,atar,12,MR,1541969711,37,20.52,-13.05,67.7,5.21
77,college,90,US,1541966280,81,64.86,-147.8,24.08,7.23
78,shingu,24,JP,1541969712,100,33.72,135.99,62.12,4.47
79,severinia,20,BR,1541966400,40,-20.81,-48.8,87.8,2.24
80,tasiilaq,92,GL,1541965800,80,65.61,-37.64,33.8,19.46
81,georgetown,20,GY,1541966400,58,6.8,-58.16,87.8,6.93
82,umm lajj,0,SA,1541969713,100,25.02,37.27,66.89,6.22
83,tiksi,24,RU,1541969713,68,71.64,128.87,2.18,8.84
84,andros town,40,BS,1541966400,66,24.73,-77.79,84.2,9.17
85,coquimbo,40,CL,1541966400,72,-29.95,-71.34,64.4,16.11
86,panaba,32,MX,1541969714,83,21.28,-88.27,79.98,4.88
87,faya,20,SA,1541966400,82,18.39,42.45,62.6,4.7
88,praia da vitoria,20,PT,1541966400,63,38.73,-27.07,60.8,24.11
89,lisakovsk,0,KZ,1541969714,88,52.55,62.49,2.4,8.28
90,yar-sale,92,RU,1541969714,92,66.83,70.83,32.28,24.16
91,pascagoula,90,US,1541968500,55,30.37,-88.56,64.04,4.7
92,talnakh,36,RU,1541969715,60,69.49,88.39,-7.23,18.19
93,lebu,44,ET,1541969715,93,8.96,38.73,50.15,3.09
94,raton,90,US,1541967900,88,36.9,-104.44,28.94,11.41
95,mareeba,75,AU,1541968200,83,-16.99,145.42,75.2,11.41
96,shafter,1,US,1541966040,25,35.5,-119.27,64.04,3.36
97,bethel,90,US,1541965980,84,60.79,-161.76,26.06,20.8
98,killybegs,88,IE,1541969716,100,54.63,-8.45,49.02,19.08
99,jiuquan,12,CN,1541969716,52,39.73,98.49,12.3,2.19
100,dikson,32,RU,1541969298,100,73.51,80.55,2.4,13.38
101,hamilton,75,BM,1541966100,78,32.3,-64.78,77.0,11.41
102,ternate,20,PH,1541966400,78,14.29,120.72,78.8,1.12
103,fortuna,0,ES,1541968200,93,38.18,-1.13,59.0,2.98
104,qaanaaq,44,GL,1541969717,100,77.48,-69.36,-0.53,11.86
105,kinsale,75,IE,1541968200,93,51.71,-8.52,46.4,9.17
106,puerto narino,40,CO,1541966400,79,-3.77,-70.38,84.2,4.7
107,beloha,76,MG,1541969718,90,-25.17,45.06,68.24,12.86
108,tabou,36,CI,1541969718,100,4.42,-7.36,82.73,5.1
109,berlevag,75,NO,1541967600,100,70.86,29.09,39.2,12.75
110,sinnamary,68,GF,1541969718,97,5.38,-52.96,80.97,9.24
111,jamestown,64,AU,1541969680,28,-33.21,138.6,68.69,10.4
112,coolum beach,0,AU,1541969719,85,-26.53,153.09,70.49,7.83
113,lufilufi,40,WS,1541966400,74,-13.87,-171.6,86.0,3.36
114,havelock,90,US,1541966280,56,34.88,-76.9,55.04,11.41
115,clyde river,1,CA,1541966400,83,70.47,-68.59,-11.21,4.7
116,mar del plata,20,AR,1541969719,52,-46.43,-67.52,65.99,10.8
117,ranau,20,MY,1541969719,99,5.95,116.67,67.34,2.01
118,yulara,0,AU,1541966400,21,-25.24,130.99,69.8,5.82
119,katsuura,44,JP,1541969720,99,33.93,134.5,49.25,2.86
120,ornskoldsvik,90,SE,1541967600,100,63.29,18.72,44.6,16.11
121,cabo san lucas,75,MX,1541965500,61,22.89,-109.91,82.4,10.29
122,saldanha,100,PT,1541969720,100,41.42,-6.55,43.67,1.45
123,viedma,92,AR,1541969720,71,-40.81,-62.99,60.72,19.13
124,kysyl-syr,56,RU,1541969721,80,63.9,122.77,4.07,2.68
125,north bend,1,US,1541966160,33,43.41,-124.22,60.98,14.99
126,aginskoye,56,RU,1541969721,59,51.11,114.54,3.57,2.75
127,aloleng,0,PH,1541969721,100,16.13,119.78,74.67,4.88
128,matara,32,PE,1541969721,49,-13.74,-72.9,61.04,2.46
129,alagoa grande,0,BR,1541966400,51,-7.16,-35.63,82.4,14.99
130,san patricio,0,PY,1541969722,64,-26.98,-56.83,88.35,3.76
131,sandovo,0,RU,1541969722,65,58.46,36.41,19.23,11.92
132,santa maria,20,BR,1541966400,43,-29.69,-53.81,91.4,8.05
133,sorland,75,NO,1541964000,81,67.67,12.69,46.4,6.93
134,sturgeon bay,90,US,1541966640,68,44.83,-87.38,30.92,6.93
135,butaritari,76,KI,1541969723,100,3.07,172.79,82.55,5.26
136,paramonga,8,PE,1541969723,94,-10.68,-77.82,65.67,13.53
137,sobolevo,88,RU,1541969724,72,54.43,31.9,30.17,19.64
138,dunedin,80,NZ,1541969724,87,-45.87,170.5,55.73,3.98
139,la asuncion,80,EC,1541969724,95,-1.64,-78.74,53.88,1.57
140,sitka,92,US,1541969724,98,37.17,-99.65,39.26,15.1
141,marzuq,0,YE,1541969724,88,14.4,46.47,49.61,2.46
142,iqaluit,40,CA,1541966400,71,63.75,-68.52,5.0,13.87
143,bredasdorp,0,ZA,1541966400,77,-34.53,20.04,68.0,14.99
144,bethanien,0,NA,1541969725,13,-26.5,17.16,73.82,10.8
145,belmonte,92,PT,1541969725,98,40.36,-7.35,48.53,2.8
146,takoradi,8,GH,1541969725,100,4.89,-1.75,80.66,6.11
147,palana,0,RU,1541969726,64,59.08,159.95,-0.08,4.76
148,torbay,75,CA,1541966400,64,47.66,-52.73,39.2,26.4
149,saint george,20,GR,1541965800,93,39.45,22.34,50.0,4.7
150,cayenne,90,GF,1541968200,88,4.94,-52.33,80.6,2.24
151,kibre mengist,88,ET,1541969726,97,5.87,38.99,60.05,2.53
152,tilichiki,12,RU,1541969726,90,60.47,166.1,-3.5,2.98
153,kavieng,20,PG,1541969727,100,-2.57,150.8,83.72,8.61
154,ambon,75,FR,1541968200,87,47.55,-2.56,55.4,6.93
155,shache,36,CN,1541969727,80,38.42,77.24,31.83,2.98
156,mackay,75,CA,1541966400,68,53.65,-115.58,26.6,8.05
157,camacupa,20,AO,1541969727,65,-12.02,17.48,65.99,4.32
158,mahebourg,40,MU,1541966400,78,-20.41,57.7,77.0,8.05
159,hofn,88,IS,1541969727,98,64.25,-15.21,43.4,9.24
160,razole,0,IN,1541969728,100,16.48,81.84,80.93,11.81
161,mount isa,0,AU,1541968200,61,-20.73,139.49,80.6,12.75
162,vikhorevka,32,RU,1541966400,83,56.12,101.17,-5.81,11.18
163,moose jaw,90,CA,1541966400,72,50.4,-105.54,14.0,18.34
164,maldonado,90,UY,1541966400,88,-34.91,-54.96,69.8,14.99
165,teguldet,36,RU,1541969728,69,57.31,88.17,-5.12,7.05
166,mao,40,DO,1541966400,62,19.55,-71.08,87.8,6.93
167,les cayes,48,HT,1541969730,95,18.19,-73.75,84.98,5.26
168,kamenka,0,RU,1541969731,60,53.19,44.05,15.5,9.8
169,kurayoshi,75,JP,1541966400,76,35.43,133.83,53.6,2.24
170,aktau,90,KZ,1541968200,87,43.65,51.16,42.8,8.95
171,mrakovo,0,RU,1541969731,56,52.72,56.62,-5.39,2.68
172,san cristobal,75,EC,1541966400,77,-0.39,-78.55,60.8,8.05
173,barrow,92,AR,1541969732,98,-38.31,-60.23,61.76,18.63
174,eyl,0,SO,1541969732,96,7.98,49.82,78.41,9.84
175,dauphin,90,CA,1541966580,78,51.15,-100.04,15.8,14.99
176,khani,92,GE,1541968200,93,41.96,42.96,46.4,5.82
177,hashtrud,36,IR,1541969733,83,37.48,47.05,25.04,2.57
178,osypenko,90,UA,1541968200,80,48.04,34.39,35.6,20.13
179,athens,75,US,1541967600,53,34.8,-86.97,53.06,5.82
180,izumo,75,JP,1541966400,76,35.37,132.75,53.6,2.24
181,hailey,5,US,1541966100,50,43.52,-114.32,33.8,9.17
182,kampene,48,CD,1541969734,87,-3.59,26.67,72.6,2.53
183,marawi,44,PH,1541969734,100,8.0,124.29,69.18,2.86
184,paamiut,0,GL,1541969734,90,61.99,-49.67,36.02,11.59
185,arraial do cabo,40,BR,1541966400,78,-22.97,-42.02,77.0,23.04
186,saint-francois,0,FR,1541968200,63,46.42,3.91,62.6,9.17
187,skara,92,SE,1541967600,100,58.38,13.44,48.2,12.75
188,usinsk,92,RU,1541969735,85,66.0,57.56,22.16,18.3
189,warrington,20,GB,1541967600,81,53.39,-2.59,48.2,10.29
190,oistins,75,BB,1541966400,83,13.07,-59.53,80.6,16.11
191,axim,68,GH,1541969735,100,4.87,-2.24,81.83,7.34
192,orichi,0,RU,1541969735,73,58.4,49.06,6.59,7.38
193,rock sound,0,BS,1541969736,100,24.9,-76.2,81.83,15.32
194,zhigansk,80,RU,1541969736,75,66.77,123.37,5.96,3.2
195,tevaitoa,32,PF,1541969736,100,-16.78,-151.5,79.53,16.33
196,victoria,75,BN,1541968200,94,5.28,115.24,78.8,1.12
197,rockport,90,US,1541967900,96,28.02,-97.05,62.06,11.41
198,eregli,44,TR,1541969737,92,37.51,34.05,40.88,2.24
199,kaitangata,24,NZ,1541969650,75,-46.28,169.85,57.75,4.59
200,south lake tahoe,1,US,1541969700,20,38.93,-119.98,46.94,10.29
201,poronaysk,88,RU,1541969737,100,49.22,143.1,33.14,4.36
202,roald,0,NO,1541967600,58,62.58,6.12,53.6,11.41
203,avarua,40,CK,1541966400,69,-21.21,-159.78,78.8,6.93
204,esperance,40,TT,1541967540,88,10.24,-61.45,80.6,6.93
205,seoul,40,KR,1541968200,70,37.57,126.98,42.8,2.24
206,bathsheba,75,BB,1541966400,83,13.22,-59.52,80.6,16.11
207,hay river,75,CA,1541966400,72,60.82,-115.79,12.2,11.41
208,atuona,48,PF,1541969738,100,-9.8,-139.03,80.57,14.05
209,taoudenni,92,ML,1541969738,20,22.68,-3.98,70.22,8.84
210,broome,0,GB,1541967600,87,52.47,1.45,48.2,8.05
211,kloulklubed,75,PW,1541965800,88,7.04,134.26,78.8,6.93
212,rafaela,32,AR,1541969739,96,-31.25,-61.49,77.37,7.83
213,zhangye,20,CN,1541969739,63,38.94,100.46,21.8,5.21
214,the valley,20,AI,1541966400,74,18.22,-63.06,82.4,12.75
215,upernavik,0,GL,1541969739,100,72.79,-56.15,18.56,4.21
216,ilhabela,0,BR,1541969739,98,-23.78,-45.36,72.74,5.59
217,guerrero negro,0,MX,1541969739,50,27.97,-114.04,74.9,10.58
218,huacho,8,PE,1541969740,58,-11.11,-77.61,73.19,7.56
219,carasova,0,RO,1541968200,50,45.2,21.87,57.2,16.11
220,san policarpo,64,PH,1541969740,97,12.18,125.51,79.53,12.93
221,fayaoue,24,NC,1541969740,99,-20.65,166.53,76.97,16.62
222,poso,64,ID,1541969740,100,-1.4,120.75,76.83,4.7
223,cap malheureux,40,MU,1541966400,78,-19.98,57.61,77.0,8.05
224,gazanjyk,20,TM,1541969741,85,39.24,55.52,38.99,6.89
225,flinders,40,AU,1541966400,100,-34.58,150.85,57.2,5.82
226,mehamn,75,NO,1541967600,85,71.03,27.85,41.0,12.75
227,kaeo,20,NZ,1541969741,70,-35.1,173.78,64.37,6.26
228,okha,88,RU,1541969741,98,53.59,142.95,35.39,17.9
229,aswan,0,EG,1541966400,32,24.09,32.9,69.8,2.24
230,beyneu,92,KZ,1541969742,97,45.32,55.19,24.59,22.59
231,itupiranga,20,BR,1541966400,50,-5.13,-49.33,95.0,2.24
232,new norfolk,0,AU,1541968200,76,-42.78,147.06,53.6,9.17
233,marquette,90,US,1541969100,79,46.54,-87.4,28.94,6.93
234,derzhavinsk,48,KZ,1541969742,69,51.1,66.31,9.78,5.55
235,celina,1,US,1541968500,44,40.55,-84.57,41.0,8.05
236,constitucion,40,MX,1541965500,19,23.99,-104.67,75.2,12.75
237,chapais,90,CA,1541967960,85,49.78,-74.86,12.2,13.87
238,kasongo,48,CD,1541969743,77,-4.43,26.67,75.26,3.47
239,provideniya,75,RU,1541966400,79,64.42,-173.23,28.4,20.13
240,henties bay,20,NA,1541969743,97,-22.12,14.28,60.9,6.71
241,nantucket,1,US,1541968500,38,41.28,-70.1,44.96,12.75
242,luwuk,24,ID,1541969744,99,-0.95,122.79,77.28,3.02
243,mount gambier,56,AU,1541969744,62,-37.83,140.78,60.45,6.78
244,brae,64,GB,1541967600,93,60.4,-1.35,50.0,10.29
245,karla,90,EE,1541967600,86,59.37,24.93,39.2,12.75
246,leningradskiy,0,RU,1541969745,100,69.38,178.42,6.0,2.3
247,madang,76,PG,1541969745,100,-5.21,145.81,75.35,2.19
248,sabancuy,0,MX,1541969745,96,18.97,-91.18,83.85,7.0
249,cidreira,32,BR,1541969745,71,-30.17,-50.22,77.51,11.07
250,russell,75,AR,1541966400,53,-33.01,-68.8,71.6,11.41
251,cockburn town,76,TC,1541969746,99,21.46,-71.14,81.87,17.07
252,carutapera,92,BR,1541969746,78,-1.2,-46.02,82.73,12.37
253,cracow,90,US,1541968560,65,43.74,-82.82,35.06,5.82
254,shubarkuduk,0,KZ,1541969746,68,49.15,56.49,10.23,12.26
255,jalu,92,LY,1541969747,43,29.03,21.55,65.63,8.12
256,sagua la grande,75,CU,1541965800,55,22.81,-80.07,86.0,13.87
257,ballina,80,IE,1541969747,98,54.11,-9.15,48.48,16.17
258,bilibino,12,RU,1541969747,56,68.06,166.44,-19.92,2.3
259,longyearbyen,75,NO,1541965800,73,78.22,15.63,24.8,12.75
260,huarmey,12,PE,1541969747,59,-10.07,-78.15,74.4,4.7
261,ibra,0,OM,1541969748,87,22.69,58.55,65.85,1.79
262,port blair,36,IN,1541969748,100,11.67,92.75,79.4,12.3
263,aklavik,90,CA,1541966400,78,68.22,-135.01,10.4,6.93
264,klaksvik,80,FO,1541967600,93,62.23,-6.59,44.6,5.82
265,nexo,0,DK,1541967600,93,55.06,15.13,50.0,16.11
266,vao,88,EE,1541969748,91,59.1,26.19,36.87,16.33
267,sungairaya,92,ID,1541969748,97,0.7,108.9,76.47,1.52
268,copiapo,20,CL,1541966400,55,-27.37,-70.33,66.2,16.11
269,half moon bay,40,US,1541966160,27,37.46,-122.43,71.06,8.05
270,mayumba,92,GA,1541969749,100,-3.44,10.65,75.98,5.37
271,faanui,76,PF,1541969749,100,-16.48,-151.75,79.4,19.53
272,namibe,0,AO,1541969749,100,-15.19,12.15,75.17,1.34
273,caravelas,92,BR,1541969749,100,-17.73,-39.27,74.09,13.15
274,gambissara,0,SN,1541969750,40,13.24,-14.31,78.59,8.39
275,springfield,90,US,1541965920,43,37.22,-93.29,46.04,4.47
276,tayoltita,32,MX,1541969750,34,24.11,-105.93,82.95,2.08
277,norman wells,90,CA,1541966400,92,65.28,-126.83,10.4,3.36
278,jeremie,12,HT,1541969750,85,18.65,-74.12,83.54,14.32
279,palmer,0,AU,1541968200,15,-34.85,139.16,77.0,13.87
280,manacapuru,12,BR,1541969751,67,-3.3,-60.62,88.49,3.2
281,jian,64,IN,1541969751,73,25.65,87.89,66.62,2.8
282,bordighera,75,IT,1541968200,87,43.79,7.66,60.8,8.05
283,dalvik,90,SE,1541967600,100,57.79,14.13,44.6,12.75
284,kieta,24,PG,1541969752,100,-6.22,155.63,78.68,4.99
285,halifax,20,CA,1541966400,51,44.65,-63.58,35.6,25.28
286,ambovombe,88,MG,1541969752,100,-25.18,46.09,69.18,13.09
287,los llanos de aridane,20,ES,1541968200,68,28.66,-17.92,68.0,9.17
288,sabak,75,MY,1541966400,94,3.77,100.99,77.0,12.82
289,vila franca do campo,40,PT,1541968200,63,37.72,-25.43,60.8,12.75
290,verkhnevilyuysk,56,RU,1541969752,81,63.45,120.31,8.25,3.09
291,orsk,0,RU,1541966400,77,51.23,58.47,5.0,8.95
292,ajaccio,0,FR,1541968200,93,41.93,8.74,59.0,5.82
293,port lincoln,48,AU,1541969753,73,-34.72,135.86,65.63,5.03
294,hambantota,12,LK,1541969753,100,6.12,81.12,77.78,4.32
295,devils lake,90,US,1541968500,62,48.11,-98.87,19.4,23.04
296,tazovskiy,44,RU,1541969754,74,67.47,78.7,0.29,7.72
297,rorvik,40,NO,1541967600,71,64.86,11.24,50.0,16.11
298,kahului,40,US,1541966160,58,20.89,-156.47,80.06,12.75
299,jiangdu,56,CN,1541969754,100,32.43,119.56,49.88,8.34
300,vangaindrano,92,MG,1541969754,100,-23.35,47.6,65.81,3.24
301,sibu,75,MY,1541966400,100,2.29,111.83,75.2,3.2
302,tomatlan,0,MX,1541969754,63,19.93,-105.25,85.7,4.03
303,gat,0,SN,1541969755,32,14.69,-16.54,85.02,6.04
304,harlingen,90,US,1541967300,89,26.19,-97.7,62.96,12.75
305,richards bay,0,ZA,1541969755,76,-28.77,32.06,69.27,11.52
306,junagarh,0,IN,1541969755,85,19.86,82.94,58.2,2.57
307,abu samrah,92,SY,1541969755,99,35.3,37.18,53.48,3.2
308,grand gaube,40,MU,1541966400,78,-20.01,57.66,77.0,8.05
309,acton vale,20,CA,1541966400,66,45.65,-72.56,32.0,18.34
310,mezen,88,RU,1541969756,80,65.85,44.24,30.75,9.28
311,atoyac,20,MX,1541965560,61,18.92,-96.78,82.4,3.36
312,ostrovnoy,8,RU,1541969756,93,68.05,39.51,26.57,16.78
313,la libertad,0,PE,1541966400,18,-16.38,-71.56,62.6,9.17
314,vrises,75,GR,1541967600,82,35.49,23.89,62.6,5.1
315,malampaka,36,TZ,1541969757,94,-3.14,33.52,62.25,2.8
316,port elizabeth,1,US,1541966160,41,39.31,-74.98,48.92,6.93
317,niquelandia,68,BR,1541969757,89,-14.47,-48.46,75.44,2.19
318,green river,90,US,1541967480,54,41.53,-109.47,26.06,8.12
319,weligama,0,LK,1541969757,100,5.97,80.42,76.02,10.74
320,goderich,68,CA,1541969664,80,43.74,-81.71,35.52,15.17
321,mvangue,20,CM,1541969758,98,2.97,11.5,68.33,2.08
322,geraldton,75,CA,1541966400,58,49.72,-86.95,24.8,4.7
323,tiarei,20,PF,1541968200,48,-17.53,-149.33,84.2,9.17
324,egvekinot,20,RU,1541969758,62,66.32,-179.17,-8.13,2.19
325,khatanga,64,RU,1541969758,75,71.98,102.47,-11.55,9.73
326,praia,75,BR,1541966400,54,-20.25,-43.81,78.8,8.05
327,conde,68,BR,1541969759,79,-11.81,-37.61,79.94,10.02
328,miyako,75,JP,1541968200,82,33.63,130.94,60.8,5.82
329,tigre,75,AR,1541966400,73,-34.42,-58.58,75.2,11.41
330,moranbah,0,AU,1541969759,72,-22.0,148.04,68.6,9.91
331,haines junction,92,CA,1541969759,87,60.75,-137.51,31.47,4.21
332,port keats,0,AU,1541969760,96,-14.25,129.55,81.15,6.6
333,matamoros,90,US,1541965980,93,25.87,-97.51,62.96,11.41
334,zunyi,88,CN,1541969760,100,27.73,106.92,48.8,3.53
335,marsh harbour,20,BS,1541969603,100,26.54,-77.06,80.88,10.63
336,oranjemund,68,ZA,1541969760,96,-28.55,16.43,58.83,0.74
337,abbeville,0,FR,1541968200,87,50.11,1.83,50.0,6.93
338,chumikan,88,RU,1541969761,97,54.72,135.31,33.18,12.59
339,lagawe,0,PH,1541969761,84,16.8,121.12,59.24,1.74
340,husavik,64,CA,1541969761,85,50.56,-96.99,23.78,15.55
341,flin flon,75,CA,1541966400,66,54.77,-101.88,10.4,12.75
342,kushima,80,JP,1541969761,100,31.5,131.29,54.38,3.24
343,batemans bay,0,AU,1541969761,94,-35.71,150.18,61.17,3.31
344,victoria point,20,AU,1541968200,68,-27.58,153.3,68.0,10.29
345,salta,75,AR,1541966400,48,-24.79,-65.41,89.6,10.29
346,tecoanapa,5,MX,1541965440,66,16.99,-99.26,86.0,8.05
347,beringovskiy,80,RU,1541969762,100,63.05,179.32,28.77,24.34
348,narrabri,0,AU,1541969762,52,-30.33,149.78,64.28,4.32
349,ancud,36,CL,1541969762,88,-41.87,-73.83,60.9,3.09
350,truckee,1,US,1541969700,20,39.33,-120.18,46.94,10.29
351,aars,92,DK,1541967600,93,56.8,9.52,51.8,9.17
352,christchurch,36,NZ,1541968200,77,-43.53,172.64,60.8,2.24
353,valentin gomez farias,40,MX,1541965500,19,24.05,-104.7,75.2,12.75
354,tselinnoye,92,UA,1541969763,100,45.9,34.18,46.91,16.55
355,alpena,75,US,1541968500,84,45.06,-83.43,31.46,8.05
356,limbang,75,BN,1541968200,94,4.75,115.01,78.8,3.36
357,yerbogachen,56,RU,1541969764,57,61.28,108.01,-6.42,3.02
358,pisco,0,PE,1541966400,30,-13.71,-76.2,71.6,9.17
359,ganzhou,92,CN,1541969764,99,25.86,114.93,61.98,3.02
360,kenora,90,CA,1541968500,73,49.76,-94.48,19.4,17.22
361,joshimath,12,IN,1541969764,100,30.57,79.57,10.01,1.01
362,znamenskoye,68,RU,1541969765,84,57.13,73.82,13.16,11.07
363,thompson,90,CA,1541966400,71,55.74,-97.86,6.8,17.22
364,bredy,0,RU,1541969765,59,52.43,60.33,-1.88,5.26
365,kizukuri,36,JP,1541969765,100,40.81,140.39,46.55,7.11
366,uvira,36,CD,1541969765,100,-3.41,29.14,58.47,2.46
367,veselynove,44,UA,1541969765,87,47.36,31.24,29.4,7.61
368,salinas,1,US,1541968500,13,36.67,-121.66,69.98,12.75
369,tarakan,64,ID,1541969704,100,3.3,117.63,75.93,5.99
370,healdsburg,1,US,1541968500,8,38.61,-122.87,75.92,6.93
371,ayan,0,TR,1541969766,79,40.67,33.6,28.91,2.46
372,willowmore,0,ZA,1541969766,82,-33.3,23.49,55.46,1.57
373,dragomiresti,0,RO,1541969766,75,44.92,25.33,29.22,1.86
374,mokrousovo,12,RU,1541969767,79,55.81,66.77,9.02,11.63
375,loyga,0,RU,1541969767,83,61.08,44.61,13.7,14.88
376,ilulissat,0,GL,1541965800,61,69.22,-51.1,12.2,3.36
377,grenfell,0,AU,1541969767,79,-33.9,148.16,58.2,5.37
378,grindavik,75,IS,1541968200,93,63.84,-22.43,39.2,5.82
379,lorengau,44,PG,1541969767,100,-2.02,147.27,82.19,5.03
380,manzanillo,24,CU,1541969768,90,20.34,-77.12,85.88,18.34
381,bubaque,0,GW,1541966400,70,11.28,-15.83,84.2,10.63
382,padang,12,ID,1541969768,100,-0.92,100.36,81.92,6.6
383,barra do corda,76,BR,1541969768,60,-5.5,-45.25,89.75,2.75
384,babanka,92,UA,1541969768,92,48.71,30.45,29.4,8.5
385,poum,0,MK,1541969769,86,41.28,20.71,30.75,0.51
386,kupang,0,ID,1541969769,100,-10.16,123.6,78.23,1.23
387,moerai,76,PF,1541969769,100,-22.43,-151.33,73.28,15.28
388,vestmannaeyjar,92,IS,1541969769,100,63.44,-20.27,43.53,3.2
389,dehri,0,IN,1541969547,87,24.87,84.18,56.13,2.53
390,clarksburg,1,US,1541967000,28,39.28,-80.34,46.94,2.57
391,petropavlovsk-kamchatskiy,90,RU,1541966400,100,53.05,158.65,30.2,2.24
392,muisne,56,EC,1541969770,67,0.61,-80.02,82.77,7.61
393,solnechnyy,92,RU,1541969770,96,50.72,136.64,32.6,7.27
394,antofagasta,40,CL,1541966400,63,-23.65,-70.4,66.2,12.75
395,sayyan,8,YE,1541969770,60,15.17,44.32,49.34,0.34
396,oussouye,0,SN,1541969770,85,12.49,-16.54,85.25,6.04
397,maneromango,0,TZ,1541969770,86,-7.2,38.78,74.27,3.58
398,santa cruz de tenerife,20,ES,1541968200,93,28.47,-16.25,68.0,18.34
399,linxia,0,CN,1541969771,65,35.6,103.21,12.03,2.01
400,gweta,0,BW,1541969771,21,-20.21,25.26,77.6,15.88
401,george,0,NG,1541969772,84,6.63,3.35,81.65,8.57
402,concordia,75,AR,1541966400,55,-31.4,-58.02,86.0,4.7
403,abilene,20,US,1541967300,51,32.45,-99.73,64.58,10.29
404,taltal,0,CL,1541969772,70,-25.41,-70.49,64.73,4.09
405,necochea,100,AR,1541969772,86,-38.55,-58.74,61.58,22.32
406,nishihara,75,JP,1541968200,72,35.74,139.53,59.0,6.93
407,nelson bay,20,AU,1541968200,77,-32.72,152.14,68.0,2.24
408,gorgan,20,IR,1541966400,93,36.84,54.43,50.0,1.86
409,rabat,0,MA,1541966400,87,34.02,-6.83,53.6,2.24
410,mogadishu,12,SO,1541969546,99,2.04,45.34,80.84,5.7
411,kulhudhuffushi,0,MV,1541969773,100,6.62,73.07,82.82,4.76
412,nong phai,0,TH,1541969773,91,16.0,101.06,70.17,2.68
413,aguimes,75,ES,1541968200,60,27.91,-15.45,71.6,10.29
414,bira,44,RU,1541969774,92,49.0,132.47,17.75,2.19
415,kralendijk,0,BQ,1541966100,70,12.15,-68.27,86.0,9.17
416,storsteinnes,75,NO,1541967600,86,69.24,19.23,39.2,23.04
417,chesma,0,RU,1541969774,74,53.81,60.65,3.35,9.35
418,namatanai,12,PG,1541969774,100,-3.66,152.44,83.67,11.25
419,huejuquilla el alto,48,MX,1541969774,32,22.63,-103.9,71.84,5.26
420,bandarbeyla,0,SO,1541969774,100,9.49,50.81,81.74,10.58
421,nanortalik,8,GL,1541969775,93,60.14,-45.24,35.07,28.25
422,mitsamiouli,0,KM,1541969775,100,-11.38,43.28,77.15,8.79
423,salinopolis,36,BR,1541969775,92,-0.61,-47.36,82.95,15.66
424,wattegama,0,LK,1541969776,91,7.35,80.68,62.48,2.68
425,aron,0,IN,1541969776,66,24.38,77.42,56.22,3.09
426,bacolod,92,PH,1541969776,96,10.68,122.95,74.72,6.04
427,guarapari,40,BR,1541966400,78,-20.67,-40.5,78.8,10.29
428,arman,12,RU,1541966400,83,59.7,150.17,-14.81,4.47
429,moses lake,90,US,1541965980,88,47.13,-119.28,30.92,3.36
430,isangel,24,VU,1541969777,98,-19.55,169.27,77.33,16.84
431,samarai,80,PG,1541969777,100,-10.62,150.67,79.31,10.29
432,sao filipe,12,CV,1541969777,97,14.9,-24.5,77.28,20.8
433,iracoubo,64,GF,1541969777,73,5.48,-53.21,83.09,5.99
434,elko,1,US,1541966160,37,40.83,-115.76,39.02,6.93
435,rio grande,20,BR,1541966400,58,-32.03,-52.1,84.2,8.05
436,longhua,20,CN,1541966400,93,29.21,106.21,50.0,6.71
437,union,1,US,1541967300,63,47.36,-123.1,48.92,11.41
438,champerico,40,MX,1541965740,48,16.38,-93.6,86.0,4.7
439,nicoya,40,CR,1541966400,66,10.15,-85.45,86.0,17.22
440,hasaki,75,JP,1541968200,93,35.73,140.83,55.4,8.05
441,poya,0,NC,1541969779,94,-21.35,165.16,75.44,9.57
442,port hedland,0,AU,1541968200,94,-20.31,118.58,73.4,6.93
443,milledgeville,90,US,1541968500,47,33.08,-83.23,59.0,4.7
444,karratha,0,AU,1541969779,45,-20.74,116.85,64.68,9.91
445,guangyuan,76,CN,1541969779,93,32.43,105.86,43.13,2.3
446,severo-kurilsk,92,RU,1541969779,97,50.68,156.12,42.86,15.28
447,port hardy,90,CA,1541966400,75,50.7,-127.42,44.6,4.7
448,lagoa,40,PT,1541968200,93,37.14,-8.45,62.6,11.41
449,scottsbluff,90,US,1541965980,43,41.87,-103.67,35.96,12.75
450,barcelos,20,PT,1541968200,93,41.53,-8.62,53.6,4.7
451,quzhou,92,CN,1541969781,100,28.97,118.86,57.93,3.8
452,vanavara,0,RU,1541969781,78,60.35,102.28,-18.26,2.68
453,great yarmouth,0,GB,1541967600,87,52.61,1.73,46.4,8.05
454,prainha,0,BR,1541969781,50,-1.8,-53.48,91.73,4.47
455,fatezh,40,RU,1541966400,79,52.09,35.86,23.0,15.66
456,port macquarie,0,AU,1541966400,93,-31.43,152.91,57.2,4.7
457,makakilo city,40,US,1541966220,52,21.35,-158.09,80.06,12.75
458,nemuro,20,JP,1541969782,100,43.32,145.57,47.18,14.43
459,luderitz,44,NA,1541966400,87,-26.65,15.16,59.0,6.93
460,uglovka,8,RU,1541969782,81,58.24,33.51,24.59,13.53
461,harper,90,US,1541967300,81,30.3,-99.24,62.96,3.36
462,sibolga,68,ID,1541969782,100,1.74,98.78,69.95,2.08
463,fano,0,IT,1541967600,93,43.84,13.01,55.4,3.36
464,davila,8,PH,1541969783,98,18.47,120.58,77.82,13.82
465,opuwo,100,NA,1541969783,30,-18.06,13.84,76.92,3.98
466,gasa,0,BT,1541969783,34,27.91,89.73,-13.85,0.18
467,karatuzskoye,56,RU,1541969783,70,53.61,92.87,6.59,3.36
468,yumen,44,CN,1541969783,71,40.29,97.04,25.13,5.59
469,ponta delgada,40,PT,1541968200,63,37.73,-25.67,60.8,12.75
470,norsup,88,VU,1541969783,97,-16.07,167.38,77.73,11.14
471,lahaina,20,US,1541966160,57,20.87,-156.68,80.06,16.11
472,lokosovo,92,RU,1541969784,80,61.13,74.84,18.42,18.19
473,ambulu,76,ID,1541969784,100,-8.35,113.61,76.34,2.57
474,havre,40,US,1541966400,66,48.55,-109.68,28.94,9.17
475,tocopilla,12,CL,1541969784,87,-22.09,-70.2,63.87,6.71
476,omboue,92,GA,1541969784,100,-1.57,9.26,77.06,7.11
477,ahuimanu,1,US,1541966220,62,21.44,-157.84,80.06,14.99
478,reynosa,90,MX,1541967300,91,26.07,-98.3,59.0,9.17
479,manaure,20,CO,1541966400,74,11.78,-72.45,86.0,9.17
480,labuhan,88,ID,1541969785,97,-2.54,115.51,72.92,2.19
481,mogadouro,100,PT,1541969785,100,41.34,-6.71,43.67,1.45
482,porto novo,40,BR,1541966400,73,-23.68,-45.44,77.0,17.22
483,brigantine,1,US,1541966400,37,39.41,-74.36,48.92,8.05
484,dingle,68,PH,1541969786,94,11.0,122.67,76.61,10.4
485,merritt,1,CA,1541966400,67,50.11,-120.79,42.8,2.24
486,samfya,0,ZM,1541969786,41,-11.37,29.56,66.57,12.08
487,arlit,0,NE,1541969786,27,18.74,7.39,64.05,3.09
488,ilovlya,40,RU,1541966400,38,49.31,43.98,26.6,24.61
489,eydhafushi,44,MV,1541969787,100,5.1,73.07,83.13,7.11
490,sur,0,OM,1541969787,96,22.57,59.53,79.62,3.53
491,chickasha,90,US,1541969400,53,35.05,-97.94,58.28,10.29
492,wanning,20,AT,1541967600,93,48.64,13.53,46.4,5.82
493,mecca,0,SA,1541969762,58,21.43,39.83,68.37,5.21
494,hvide sande,88,DK,1541967600,93,56.01,8.13,51.8,16.11
495,broken hill,76,AU,1541969787,32,-31.97,141.45,65.9,6.55
496,sri aman,92,MY,1541966400,100,1.24,111.46,75.2,0.74
497,mananjary,92,MG,1541969788,100,-19.16,46.8,58.83,3.31
498,maumere,24,ID,1541969788,100,-8.63,122.22,81.92,3.69
499,zabaykalsk,88,CN,1541969788,75,49.64,117.33,13.88,3.2
500,san jose,0,PH,1541969596,93,15.79,120.99,65.22,1.79
501,fairbanks,90,US,1541966280,81,64.84,-147.72,24.08,7.23
502,xam nua,92,LA,1541969789,97,20.42,104.04,61.98,0.78
503,sechenovo,0,RU,1541969789,82,55.22,45.89,12.26,6.6
504,morondava,0,MG,1541969790,100,-20.3,44.28,71.39,3.24
505,kota tinggi,75,MY,1541968200,94,1.73,103.9,78.8,2.8
506,pimentel,48,BR,1541969790,87,-3.7,-45.5,81.42,2.19
507,anaco,48,VE,1541969790,42,9.43,-64.46,91.82,10.63
508,pacifica,1,US,1541968500,8,37.61,-122.49,73.94,11.41
509,kavaratti,0,IN,1541969791,100,10.57,72.64,85.07,6.11
510,rio brilhante,0,BR,1541969791,83,-21.8,-54.54,84.57,3.47
511,dongsheng,88,CN,1541969791,94,29.72,112.52,52.17,7.83
512,tongliao,0,CN,1541969791,82,43.61,122.27,21.62,2.98
513,kambove,0,CD,1541969791,63,-10.88,26.6,61.31,4.54
514,merauke,0,ID,1541969791,95,-8.49,140.4,78.86,16.17
515,kusa,64,RU,1541969791,84,55.34,59.45,8.84,9.01
516,anito,44,PH,1541969792,100,12.45,125.29,81.65,16.17
517,maues,36,BR,1541969792,67,-3.38,-57.72,88.17,2.8
518,tan an,40,VN,1541968200,88,10.54,106.4,80.6,1.12
519,jacqueville,40,CI,1541966400,74,5.21,-4.42,84.2,9.17
520,te anau,80,NZ,1541969792,91,-45.41,167.72,51.0,3.53
521,saint-augustin,92,FR,1541968200,100,44.83,-0.61,57.2,2.24
522,marrakesh,0,MA,1541968200,63,31.63,-7.99,60.8,8.05
523,brownsville,90,US,1541965980,93,25.91,-97.49,62.96,11.41
524,garachine,80,PA,1541969793,100,8.06,-78.36,79.08,4.36
525,pangnirtung,20,CA,1541966400,78,66.15,-65.72,12.2,5.82
526,jinchang,12,CN,1541969794,64,38.52,102.19,19.64,2.68
527,rovaniemi,90,FI,1541967600,100,66.5,25.72,35.6,8.05
528,newport news,1,US,1541967300,45,36.98,-76.43,51.98,4.7
529,mori,75,JP,1541965560,87,34.86,137.94,59.0,2.24
530,lusaka,0,ZM,1541969794,55,-15.42,28.28,62.03,6.38
531,guider,0,CM,1541969794,48,9.93,13.94,67.16,4.88
532,chunskiy,56,RU,1541969795,72,56.08,99.63,0.38,3.02
533,saint anthony,40,US,1541966160,33,43.97,-111.68,33.98,3.36
534,lucea,20,JM,1541966400,66,18.44,-78.17,87.8,23.04
535,camacha,40,PT,1541968200,82,33.08,-16.33,66.2,11.41
536,sao domingos,32,BR,1541969795,96,-13.4,-46.32,73.32,2.86
537,boa vista,40,BR,1541966400,36,2.82,-60.67,95.0,9.17
538,gamba,0,CN,1541969797,49,28.28,88.52,-6.56,2.08
539,rio gallegos,0,AR,1541966400,16,-51.62,-69.22,75.2,13.87
540,naze,40,NG,1541966400,83,5.43,7.07,82.4,2.24
541,bom jesus,0,BR,1541966400,69,-5.99,-35.58,82.4,14.99
542,maceio,0,BR,1541966400,65,-9.67,-35.74,80.6,13.87
543,chapada dos guimaraes,40,BR,1541966400,46,-15.46,-55.75,91.4,6.93
544,puerto escondido,20,MX,1541965200,66,15.86,-97.07,87.8,8.05
545,avera,1,US,1541968500,43,33.19,-82.53,60.08,8.05
546,roma,0,IT,1541967600,81,41.89,12.48,59.0,5.82
547,nargana,92,PA,1541969798,100,9.44,-78.59,80.12,5.77
548,elblag,90,PL,1541968200,93,54.15,19.41,44.6,10.29
549,luanshya,0,ZM,1541969799,39,-13.14,28.42,64.05,9.51
550,moron,75,VE,1541966400,74,10.49,-68.2,87.8,4.7
